Name,Longitude,Latitude
fernie,-115.0873,49.4627
kickinghorse,-117.0483,51.2976
nakiska,-115.1511,50.9427
sunshine,-115.7765,51.0785
lakelouise,-116.1622,51.4419
revelstoke,-118.1631,50.9584
panorama,-116.238157,50.460374
norquay,-115.6068,51.2053
kimberley,-116.0048,49.6879
silverStar,-119.061,50.3598
sunPeaks,-119.8891,50.8837
bigWhite,-118.93528,49.716
